[
    {
      "id": 1,
      "name": "두근두근 소야소",
      "category": "한식",
      "lat": 37.358709,
      "lon": 126.932936
    },
    {
      "id": 2,
      "name": "상무초밥",
      "category": "일식",
      "lat": 37.358971,
      "lon":  126.933674
    },
    {
      "id": 3,
      "name": "천인 감자탕",
      "category": "한식",
      "lat": 37.358889,
      "lon": 126.932698
    },
    {
      "id": 4,
      "name": "보배반점",
      "category": "중식",
      "lat": 37.359670,
      "lon": 126.932054
    },
    {
      "id": 5,
      "name": "멘츠루 산본본점",
      "category": "일식",
      "lat": 37.359874,
      "lon": 126.932359
    },
    {
      "id": 6,
      "name": "닐리 산본본점",
      "category": "양식",
      "lat": 37.360864,
      "lon": 126.932385
    },
    {
      "id": 7,
      "name": "분식랜드",
      "category": "분식",
      "lat": 37.358864,
      "lon": 126.932697
    }
  ]